adb server is out of date.  killing...
* daemon started successfully *
--------- beginning of system
--------- beginning of main
09-06 14:56:10.427  1863  3368 E qxsdk   : nmea:$ACCUR,1,12,0,20190906,065611.00,,,,,,,,,,*46
09-06 14:56:10.427  1863  3368 E qxsdk   : nmea:$GPGGA,065611.00,2233.473368,N,11353.482676,E,1,16,0.0,15.902,M,0.000,M,,*60
09-06 14:56:10.427  1863  3368 E qxsdk   : nmea:$GPGLL,,,,,,V,N*64
09-06 14:56:10.427  1863  3368 E qxsdk   : nmea:$GPGSA,A,1,,,,,,,,,,,,,,,*1E
09-06 14:56:10.427  1863  3368 E qxsdk   : nmea:$GPGSV,3,1,12,2,,,41,5,,,41,6,,,33,7,,,*7E
09-06 14:56:10.427  1863  3368 E qxsdk   : nmea:$GPGSV,3,2,12,12,,,,13,,,40,15,,,39,19,,,*78
09-06 14:56:10.427  1863  3368 E qxsdk   : nmea:$GPGSV,3,3,12,24,,,,25,,,,29,,,42,30,,,36*70
09-06 14:56:10.427  1863  3368 E qxsdk   : nmea:$BDGSV,4,1,13,201,,,36,202,,,35,203,,,37,204,,,37*68
09-06 14:56:10.427  1863  3368 E qxsdk   : nmea:$BDGSV,4,2,13,206,,,39,208,,,38,209,,,32,213,,,38*62
09-06 14:56:10.427  1863  3368 E qxsdk   : nmea:$BDGSV,4,3,13,216,,,39,219,,,41,220,,,41,229,,,42*67
09-06 14:56:10.427  1863  3368 E qxsdk   : nmea:$BDGSV,4,4,13,230,,,39*51
09-06 14:56:10.427  1863  3368 E qxsdk   : nmea:$GPVTG,,T,,M,,N,,K,N*2C
09-06 14:56:11.426  1863  3368 E qxsdk   : nmea:$GPRMC,065612.00,A,2233.473370,N,11353.482622,E,0.0,154.8,060919,,,A*5E
09-06 14:56:11.426  1863  3368 E qxsdk   : nmea:$ACCUR,1,12,0,20190906,065612.00,,,,,,,,,,*45
09-06 14:56:11.426  1863  3368 E qxsdk   : nmea:$GPGGA,065612.00,2233.473370,N,11353.482622,E,1,16,0.0,16.024,M,0.000,M,,*65
09-06 14:56:11.426  1863  3368 E qxsdk   : nmea:$GPGLL,,,,,,V,N*64
09-06 14:56:11.426  1863  3368 E qxsdk   : nmea:$GPGSA,A,1,,,,,,,,,,,,,,,*1E
09-06 14:56:11.426  1863  3368 E qxsdk   : nmea:$GPGSV,3,1,12,2,,,44,5,,,46,6,,,37,7,,,*78
09-06 14:56:11.426  1863  3368 E qxsdk   : nmea:$GPGSV,3,2,12,12,,,,13,,,43,15,,,43,19,,,*76
09-06 14:56:11.426  1863  3368 E qxsdk   : nmea:$GPGSV,3,3,12,24,,,,25,,,,29,,,46,30,,,40*75
09-06 14:56:11.426  1863  3368 E qxsdk   : nmea:$BDGSV,4,1,13,201,,,36,202,,,37,203,,,39,204,,,39*6A
09-06 14:56:11.426  1863  3368 E qxsdk   : nmea:$BDGSV,4,2,13,206,,,39,208,,,39,209,,,33,213,,,40*6D
09-06 14:56:11.426  1863  3368 E qxsdk   : nmea:$BDGSV,4,3,13,216,,,40,219,,,42,220,,,43,229,,,43*69
09-06 14:56:11.426  1863  3368 E qxsdk   : nmea:$BDGSV,4,4,13,230,,,40*5F
09-06 14:56:11.426  1863  3368 E qxsdk   : nmea:$GPVTG,,T,,M,,N,,K,N*2C
09-06 14:56:11.426  1863  3367 E qxsdk   : cb_status_response status:3002 
09-06 14:56:11.426  1863  3367 E qxsdk   : posflag:8 
09-06 14:56:12.426  1863  3368 E qxsdk   : nmea:$GPRMC,065613.00,A,2233.473350,N,11353.482636,E,0.0,48.6,060919,,,A*6A
09-06 14:56:12.426  1863  3367 E qxsdk   : cb_status_response status:3002 
09-06 14:56:12.426  1863  3367 E qxsdk   : posflag:8 
09-06 14:56:12.431  1863  3368 E qxsdk   : nmea:$ACCUR,1,12,0,20190906,065613.00,,,,,,,,,,*44
09-06 14:56:12.431  1863  3368 E qxsdk   : nmea:$GPGGA,065613.00,2233.473350,N,11353.482636,E,1,16,0.0,16.245,M,0.000,M,,*66
09-06 14:56:12.431  1863  3368 E qxsdk   : nmea:$GPGLL,,,,,,V,N*64
09-06 14:56:12.431  1863  3368 E qxsdk   : nmea:$GPGSA,A,1,,,,,,,,,,,,,,,*1E
09-06 14:56:12.431  1863  3368 E qxsdk   : nmea:$GPGSV,3,1,12,2,,,42,5,,,43,6,,,35,7,,,*79
09-06 14:56:12.431  1863  3368 E qxsdk   : nmea:$GPGSV,3,2,12,12,,,,13,,,42,15,,,41,19,,,*75
09-06 14:56:12.431  1863  3368 E qxsdk   : nmea:$GPGSV,3,3,12,24,,,,25,,,,29,,,44,30,,,39*79
09-06 14:56:12.431  1863  3368 E qxsdk   : nmea:$BDGSV,4,1,13,201,,,37,202,,,34,203,,,37,204,,,37*68
09-06 14:56:12.431  1863  3368 E qxsdk   : nmea:$BDGSV,4,2,13,206,,,39,208,,,38,209,,,35,213,,,39*64
09-06 14:56:12.431  1863  3368 E qxsdk   : nmea:$BDGSV,4,3,13,216,,,39,219,,,40,220,,,41,229,,,42*66
09-06 14:56:12.431  1863  3368 E qxsdk   : nmea:$BDGSV,4,4,13,230,,,39*51
09-06 14:56:12.432  1863  3368 E qxsdk   : nmea:$GPVTG,,T,,M,,N,,K,N*2C
09-06 14:56:13.421  1863  3368 E qxsdk   : nmea:$GPRMC,065614.00,A,2233.473297,N,11353.482582,E,0.2,156.1,060919,,,A*50
09-06 14:56:13.421  1863  3368 E qxsdk   : nmea:$ACCUR,1,12,0,20190906,065614.00,,,,,,,,,,*43
09-06 14:56:13.421  1863  3368 E qxsdk   : nmea:$GPGGA,065614.00,2233.473297,N,11353.482582,E,1,16,0.0,16.374,M,0.000,M,,*64
09-06 14:56:13.421  1863  3368 E qxsdk   : nmea:$GPGLL,,,,,,V,N*64
09-06 14:56:13.421  1863  3368 E qxsdk   : nmea:$GPGSA,A,1,,,,,,,,,,,,,,,*1E
09-06 14:56:13.421  1863  3368 E qxsdk   : nmea:$GPGSV,3,1,12,2,,,42,5,,,43,6,,,34,7,,,*78
09-06 14:56:13.421  1863  3368 E qxsdk   : nmea:$GPGSV,3,2,12,12,,,,13,,,41,15,,,41,19,,,*76
09-06 14:56:13.421  1863  3368 E qxsdk   : nmea:$GPGSV,3,3,12,24,,,,25,,,,29,,,44,30,,,38*78
09-06 14:56:13.421  1863  3368 E qxsdk   : nmea:$BDGSV,4,1,13,201,,,,202,,,28,203,,,,204,,,29*6A
09-06 14:56:13.421  1863  3368 E qxsdk   : nmea:$BDGSV,4,2,13,206,,,27,208,,,26,209,,,22,213,,,28*62
09-06 14:56:13.421  1863  3368 E qxsdk   : nmea:$BDGSV,4,3,13,216,,,29,219,,,28,220,,,28,229,,,27*65
09-06 14:56:13.421  1863  3368 E qxsdk   : nmea:$BDGSV,4,4,13,230,,,25*5C
09-06 14:56:13.421  1863  3368 E qxsdk   : nmea:$GPVTG,,T,,M,,N,,K,N*2C
09-06 14:56:13.421  1863  3367 E qxsdk   : cb_status_response status:3002 
09-06 14:56:13.421  1863  3367 E qxsdk   : posflag:8 
09-06 14:56:14.428  1863  3368 E qxsdk   : nmea:$GPRMC,065615.00,A,2233.473270,N,11353.482527,E,0.1,236.0,060919,,,A*50
09-06 14:56:14.428  1863  3368 E qxsdk   : nmea:$ACCUR,1,12,0,20190906,065615.00,,,,,,,,,,*42
09-06 14:56:14.428  1863  3368 E qxsdk   : nmea:$GPGGA,065615.00,2233.473270,N,11353.482527,E,1,16,0.0,17.148,M,0.000,M,,*6F
09-06 14:56:14.428  1863  3368 E qxsdk   : nmea:$GPGLL,,,,,,V,N*64
09-06 14:56:14.428  1863  3368 E qxsdk   : nmea:$GPGSA,A,1,,,,,,,,,,,,,,,*1E
09-06 14:56:14.428  1863  3368 E qxsdk   : nmea:$GPGSV,3,1,12,2,,,46,5,,,47,6,,,39,7,,,*75
09-06 14:56:14.428  1863  3368 E qxsdk   : nmea:$GPGSV,3,2,12,12,,,,13,,,45,15,,,45,19,,,*76
09-06 14:56:14.428  1863  3368 E qxsdk   : nmea:$GPGSV,3,3,12,24,,,,25,,,,29,,,48,30,,,42*79
09-06 14:56:14.428  1863  3368 E qxsdk   : nmea:$BDGSV,4,1,13,201,,,39,202,,,38,203,,,39,204,,,41*65
09-06 14:56:14.428  1863  3368 E qxsdk   : nmea:$BDGSV,4,2,13,206,,,42,208,,,40,209,,,36,213,,,41*6B
09-06 14:56:14.428  1863  3368 E qxsdk   : nmea:$BDGSV,4,3,13,216,,,43,219,,,44,220,,,44,229,,,45*6D
09-06 14:56:14.428  1863  3368 E qxsdk   : nmea:$BDGSV,4,4,13,230,,,42*5D
09-06 14:56:14.428  1863  3368 E qxsdk   : nmea:$GPVTG,,T,,M,,N,,K,N*2C
09-06 14:56:14.428  1863  3367 E qxsdk   : cb_status_response status:3002 
09-06 14:56:14.428  1863  3367 E qxsdk   : posflag:8 
09-06 14:56:15.426  1863  3368 E qxsdk   : nmea:$GPRMC,065616.00,A,2233.473282,N,11353.482652,E,0.0,134.8,060919,,,A*57
09-06 14:56:15.426  1863  3368 E qxsdk   : nmea:$ACCUR,1,12,0,20190906,065616.00,,,,,,,,,,*41
09-06 14:56:15.426  1863  3368 E qxsdk   : nmea:$GPGGA,065616.00,2233.473282,N,11353.482652,E,1,16,0.0,17.355,M,0.000,M,,*6E
09-06 14:56:15.426  1863  3368 E qxsdk   : nmea:$GPGLL,,,,,,V,N*64
09-06 14:56:15.426  1863  3368 E qxsdk   : nmea:$GPGSA,A,1,,,,,,,,,,,,,,,*1E
09-06 14:56:15.426  1863  3368 E qxsdk   : nmea:$GPGSV,3,1,12,2,,,43,5,,,44,6,,,37,7,,,*7D
09-06 14:56:15.426  1863  3368 E qxsdk   : nmea:$GPGSV,3,2,12,12,,,,13,,,42,15,,,43,19,,,*77
09-06 14:56:15.426  1863  3368 E qxsdk   : nmea:$GPGSV,3,3,12,24,,,,25,,,,29,,,44,30,,,40*77
09-06 14:56:15.426  1863  3368 E qxsdk   : nmea:$BDGSV,4,1,13,201,,,37,202,,,36,203,,,37,204,,,37*6A
09-06 14:56:15.426  1863  3368 E qxsdk   : nmea:$BDGSV,4,2,13,206,,,38,208,,,38,209,,,36,213,,,39*66
09-06 14:56:15.426  1863  3368 E qxsdk   : nmea:$BDGSV,4,3,13,216,,,40,219,,,41,220,,,41,229,,,42*69
09-06 14:56:15.426  1863  3368 E qxsdk   : nmea:$BDGSV,4,4,13,230,,,40*5F
09-06 14:56:15.426  1863  3368 E qxsdk   : nmea:$GPVTG,,T,,M,,N,,K,N*2C
09-06 14:56:15.426  1863  3367 E qxsdk   : cb_status_response status:3002 
09-06 14:56:15.426  1863  3367 E qxsdk   : posflag:8 
09-06 14:56:16.417  1863  3368 E qxsdk   : nmea:$GPRMC,065617.00,A,2233.473302,N,11353.482639,E,0.1,345.2,060919,,,A*5D
09-06 14:56:16.417  1863  3368 E qxsdk   : nmea:$ACCUR,1,12,0,20190906,065617.00,,,,,,,,,,*40
09-06 14:56:16.417  1863  3368 E qxsdk   : nmea:$GPGGA,065617.00,2233.473302,N,11353.482639,E,1,16,0.0,17.371,M,0.000,M,,*6D
09-06 14:56:16.417  1863  3368 E qxsdk   : nmea:$GPGLL,,,,,,V,N*64
09-06 14:56:16.417  1863  3368 E qxsdk   : nmea:$GPGSA,A,1,,,,,,,,,,,,,,,*1E
09-06 14:56:16.417  1863  3368 E qxsdk   : nmea:$GPGSV,3,1,12,2,,,32,5,,,33,6,,,25,7,,,*78
09-06 14:56:16.417  1863  3368 E qxsdk   : nmea:$GPGSV,3,2,12,12,,,,13,,,32,15,,,30,19,,,*74
09-06 14:56:16.417  1863  3368 E qxsdk   : nmea:$GPGSV,3,3,12,24,,,,25,,,,29,,,34,30,,,30*77
09-06 14:56:16.417  1863  3368 E qxsdk   : nmea:$BDGSV,4,1,13,201,,,,202,,,,203,,,,204,,,*6B
09-06 14:56:16.417  1863  3368 E qxsdk   : nmea:$BDGSV,4,2,13,206,,,24,208,,,20,209,,,27,213,,,25*6F
09-06 14:56:16.417  1863  3368 E qxsdk   : nmea:$BDGSV,4,3,13,216,,,28,219,,,26,220,,,27,229,,,27*65
09-06 14:56:16.417  1863  3368 E qxsdk   : nmea:$BDGSV,4,4,13,230,,,24*5D
09-06 14:56:16.417  1863  3368 E qxsdk   : nmea:$GPVTG,,T,,M,,N,,K,N*2C
09-06 14:56:16.417  1863  3367 E qxsdk   : cb_status_response status:3002 
09-06 14:56:16.417  1863  3367 E qxsdk   : posflag:8 
09-06 14:56:17.419  1863  3368 E qxsdk   : nmea:$GPRMC,065618.00,A,2233.473367,N,11353.482547,E,0.5,316.4,060919,,,A*5F
09-06 14:56:17.419  1863  3368 E qxsdk   : nmea:$ACCUR,1,12,0,20190906,065618.00,,,,,,,,,,*4F
09-06 14:56:17.419  1863  3368 E qxsdk   : nmea:$GPGGA,065618.00,2233.473367,N,11353.482547,E,1,16,0.0,18.021,M,0.000,M,,*62
09-06 14:56:17.419  1863  3368 E qxsdk   : nmea:$GPGLL,,,,,,V,N*64
09-06 14:56:17.419  1863  3368 E qxsdk   : nmea:$GPGSA,A,1,,,,,,,,,,,,,,,*1E
09-06 14:56:17.419  1863  3368 E qxsdk   : nmea:$GPGSV,3,1,12,2,,,39,5,,,40,6,,,31,7,,,*72
09-06 14:56:17.419  1863  3368 E qxsdk   : nmea:$GPGSV,3,2,12,12,,,,13,,,38,15,,,38,19,,,*76
09-06 14:56:17.419  1863  3368 E qxsdk   : nmea:$GPGSV,3,3,12,24,,,,25,,,,29,,,41,30,,,34*71
09-06 14:56:17.419  1863  3368 E qxsdk   : nmea:$BDGSV,4,1,13,201,,,,202,,,,203,,,,204,,,33*6B
09-06 14:56:17.419  1863  3368 E qxsdk   : nmea:$BDGSV,4,2,13,206,,,34,208,,,33,209,,,32,213,,,35*69
09-06 14:56:17.419  1863  3368 E qxsdk   : nmea:$BDGSV,4,3,13,216,,,36,219,,,37,220,,,37,229,,,38*65
09-06 14:56:17.419  1863  3368 E qxsdk   : nmea:$BDGSV,4,4,13,230,,,35*5D
09-06 14:56:17.419  1863  3368 E qxsdk   : nmea:$GPVTG,,T,,M,,N,,K,N*2C
09-06 14:56:17.419  1863  3367 E qxsdk   : cb_status_response status:3002 
09-06 14:56:17.419  1863  3367 E qxsdk   : posflag:8 
09-06 14:56:18.439  1863  3368 E qxsdk   : nmea:$GPRMC,065619.00,A,2233.473428,N,11353.482518,E,0.2,328.3,060919,,,A*55
09-06 14:56:18.439  1863  3368 E qxsdk   : nmea:$ACCUR,1,12,0,20190906,065619.00,,,,,,,,,,*4E
09-06 14:56:18.439  1863  3368 E qxsdk   : nmea:$GPGGA,065619.00,2233.473428,N,11353.482518,E,1,16,0.0,18.375,M,0.000,M,,*67
09-06 14:56:18.440  1863  3368 E qxsdk   : nmea:$GPGLL,,,,,,V,N*64
09-06 14:56:18.440  1863  3368 E qxsdk   : nmea:$GPGSA,A,1,,,,,,,,,,,,,,,*1E
09-06 14:56:18.440  1863  3368 E qxsdk   : nmea:$GPGSV,3,1,12,2,,,45,5,,,46,6,,,39,7,,,*77
09-06 14:56:18.440  1863  3368 E qxsdk   : nmea:$GPGSV,3,2,12,12,,,,13,,,44,15,,,45,19,,,*77
09-06 14:56:18.440  1863  3368 E qxsdk   : nmea:$GPGSV,3,3,12,24,,,,25,,,,29,,,47,30,,,42*76
09-06 14:56:18.440  1863  3368 E qxsdk   : nmea:$BDGSV,4,1,13,201,,,36,202,,,32,203,,,36,204,,,37*6E
09-06 14:56:18.440  1863  3368 E qxsdk   : nmea:$BDGSV,4,2,13,206,,,38,208,,,37,209,,,32,213,,,36*62
09-06 14:56:18.440  1863  3368 E qxsdk   : nmea:$BDGSV,4,3,13,216,,,38,219,,,40,220,,,41,229,,,42*67
09-06 14:56:18.440  1863  3368 E qxsdk   : nmea:$BDGSV,4,4,13,230,,,40*5F
09-06 14:56:18.440  1863  3368 E qxsdk   : nmea:$GPVTG,,T,,M,,N,,K,N*2C
09-06 14:56:18.440  1863  3367 E qxsdk   : cb_status_response status:3002 
09-06 14:56:18.440  1863  3367 E qxsdk   : posflag:8 
09-06 14:56:19.438  1863  3368 E qxsdk   : nmea:$GPRMC,065620.00,A,2233.473459,N,11353.482470,E,0.1,12.1,060919,,,A*6D
09-06 14:56:19.438  1863  3368 E qxsdk   : nmea:$ACCUR,1,12,0,20190906,065620.00,,,,,,,,,,*44
09-06 14:56:19.438  1863  3368 E qxsdk   : nmea:$GPGGA,065620.00,2233.473459,N,11353.482470,E,1,16,0.0,18.680,M,0.000,M,,*6B
09-06 14:56:19.438  1863  3368 E qxsdk   : nmea:$GPGLL,,,,,,V,N*64
09-06 14:56:19.438  1863  3368 E qxsdk   : nmea:$GPGSA,A,1,,,,,,,,,,,,,,,*1E
09-06 14:56:19.438  1863  3368 E qxsdk   : nmea:$GPGSV,3,1,12,2,,,44,5,,,45,6,,,38,7,,,*74
09-06 14:56:19.438  1863  3368 E qxsdk   : nmea:$GPGSV,3,2,12,12,,,,13,,,43,15,,,43,19,,,*76
09-06 14:56:19.438  1863  3368 E qxsdk   : nmea:$GPGSV,3,3,12,24,,,,25,,,,29,,,46,30,,,41*74
09-06 14:56:19.438  1863  3368 E qxsdk   : nmea:$BDGSV,4,1,13,201,,,31,202,,,32,203,,,33,204,,,33*68
09-06 14:56:19.438  1863  3368 E qxsdk   : nmea:$BDGSV,4,2,13,206,,,35,208,,,34,209,,,,213,,,35*6E
09-06 14:56:19.438  1863  3368 E qxsdk   : nmea:$BDGSV,4,3,13,216,,,36,219,,,35,220,,,37,229,,,38*67
09-06 14:56:19.438  1863  3368 E qxsdk   : nmea:$BDGSV,4,4,13,230,,,35*5D
09-06 14:56:19.438  1863  3368 E qxsdk   : nmea:$GPVTG,,T,,M,,N,,K,N*2C
09-06 14:56:19.438  1863  3367 E qxsdk   : cb_status_response status:3002 
09-06 14:56:19.438  1863  3367 E qxsdk   : posflag:8 
09-06 14:56:20.443  1863  3368 E qxsdk   : nmea:$GPRMC,065621.00,A,2233.473482,N,11353.482471,E,0.1,217.8,060919,,,A*55
09-06 14:56:20.443  1863  3368 E qxsdk   : nmea:$ACCUR,1,12,0,20190906,065621.00,,,,,,,,,,*45
09-06 14:56:20.443  1863  3368 E qxsdk   : nmea:$GPGGA,065621.00,2233.473482,N,11353.482471,E,1,16,0.0,19.255,M,0.000,M,,*60
09-06 14:56:20.443  1863  3368 E qxsdk   : nmea:$GPGLL,,,,,,V,N*64
09-06 14:56:20.443  1863  3368 E qxsdk   : nmea:$GPGSA,A,1,,,,,,,,,,,,,,,*1E
09-06 14:56:20.443  1863  3368 E qxsdk   : nmea:$GPGSV,3,1,12,2,,,40,5,,,42,6,,,33,7,,,*7C
09-06 14:56:20.443  1863  3368 E qxsdk   : nmea:$GPGSV,3,2,12,12,,,,13,,,40,15,,,41,19,,,*77
09-06 14:56:20.443  1863  3368 E qxsdk   : nmea:$GPGSV,3,3,12,24,,,,25,,,,29,,,43,30,,,38*7F
09-06 14:56:20.443  1863  3368 E qxsdk   : nmea:$BDGSV,4,1,13,201,,,,202,,,32,203,,,33,204,,,36*6F
09-06 14:56:20.443  1863  3368 E qxsdk   : nmea:$BDGSV,4,2,13,206,,,35,208,,,34,209,,,34,213,,,35*69
09-06 14:56:20.443  1863  3368 E qxsdk   : nmea:$BDGSV,4,3,13,216,,,38,219,,,38,220,,,38,229,,,40*64
09-06 14:56:20.443  1863  3368 E qxsdk   : nmea:$BDGSV,4,4,13,230,,,37*5F
09-06 14:56:20.443  1863  3368 E qxsdk   : nmea:$GPVTG,,T,,M,,N,,K,N*2C
09-06 14:56:20.443  1863  3367 E qxsdk   : cb_status_response status:3002 
09-06 14:56:20.443  1863  3367 E qxsdk   : posflag:8 
09-06 14:56:21.437  1863  3368 E qxsdk   : nmea:$GPRMC,065622.00,A,2233.473484,N,11353.482488,E,0.0,266.8,060919,,,A*51
09-06 14:56:21.437  1863  3368 E qxsdk   : nmea:$ACCUR,1,12,0,20190906,065622.00,,,,,,,,,,*46
09-06 14:56:21.437  1863  3368 E qxsdk   : nmea:$GPGGA,065622.00,2233.473484,N,11353.482488,E,1,16,0.0,19.507,M,0.000,M,,*63
09-06 14:56:21.437  1863  3368 E qxsdk   : nmea:$GPGLL,,,,,,V,N*64
09-06 14:56:21.437  1863  3368 E qxsdk   : nmea:$GPGSA,A,1,,,,,,,,,,,,,,,*1E
09-06 14:56:21.437  1863  3368 E qxsdk   : nmea:$GPGSV,3,1,12,2,,,41,5,,,44,6,,,34,7,,,*7C
09-06 14:56:21.437  1863  3368 E qxsdk   : nmea:$GPGSV,3,2,12,12,,,,13,,,41,15,,,42,19,,,*75
09-06 14:56:21.437  1863  3368 E qxsdk   : nmea:$GPGSV,3,3,12,24,,,,25,,,,29,,,43,30,,,39*7E
09-06 14:56:21.437  1863  3368 E qxsdk   : nmea:$BDGSV,4,1,13,201,,,31,202,,,30,203,,,29,204,,,33*61
09-06 14:56:21.437  1863  3368 E qxsdk   : nmea:$BDGSV,4,2,13,206,,,32,208,,,33,209,,,31,213,,,32*6B
09-06 14:56:21.437  1863  3368 E qxsdk   : nmea:$BDGSV,4,3,13,216,,,35,219,,,35,220,,,35,229,,,38*66
09-06 14:56:21.437  1863  3368 E qxsdk   : nmea:$BDGSV,4,4,13,230,,,34*5C
09-06 14:56:21.437  1863  3368 E qxsdk   : nmea:$GPVTG,,T,,M,,N,,K,N*2C
09-06 14:56:21.438  1863  3367 E qxsdk   : cb_status_response status:3002 
09-06 14:56:21.438  1863  3367 E qxsdk   : posflag:8 
09-06 14:56:22.428  1863  3368 E qxsdk   : nmea:$GPRMC,065623.00,A,2233.473511,N,11353.482524,E,0.1,127.8,060919,,,A*5D
09-06 14:56:22.428  1863  3368 E qxsdk   : nmea:$ACCUR,1,12,0,20190906,065623.00,,,,,,,,,,*47
09-06 14:56:22.428  1863  3368 E qxsdk   : nmea:$GPGGA,065623.00,2233.473511,N,11353.482524,E,1,16,0.0,19.699,M,0.000,M,,*6C
09-06 14:56:22.428  1863  3368 E qxsdk   : nmea:$GPGLL,,,,,,V,N*64
09-06 14:56:22.428  1863  3368 E qxsdk   : nmea:$GPGSA,A,1,,,,,,,,,,,,,,,*1E
09-06 14:56:22.428  1863  3368 E qxsdk   : nmea:$GPGSV,3,1,12,2,,,39,5,,,41,6,,,31,7,,,*73
09-06 14:56:22.428  1863  3368 E qxsdk   : nmea:$GPGSV,3,2,12,12,,,,13,,,38,15,,,40,19,,,*79
09-06 14:56:22.428  1863  3368 E qxsdk   : nmea:$GPGSV,3,3,12,24,,,,25,,,,29,,,40,30,,,35*71
09-06 14:56:22.428  1863  3368 E qxsdk   : nmea:$BDGSV,4,1,13,201,,,35,202,,,32,203,,,34,204,,,37*6F
09-06 14:56:22.428  1863  3368 E qxsdk   : nmea:$BDGSV,4,2,13,206,,,37,208,,,36,209,,,34,213,,,36*6A
09-06 14:56:22.428  1863  3368 E qxsdk   : nmea:$BDGSV,4,3,13,216,,,38,219,,,39,220,,,40,229,,,41*6B
09-06 14:56:22.428  1863  3368 E qxsdk   : nmea:$BDGSV,4,4,13,230,,,39*51
09-06 14:56:22.428  1863  3368 E qxsdk   : nmea:$GPVTG,,T,,M,,N,,K,N*2C
09-06 14:56:22.428  1863  3367 E qxsdk   : cb_status_response status:3002 
09-06 14:56:22.428  1863  3367 E qxsdk   : posflag:8 
09-06 14:56:23.426  1863  3368 E qxsdk   : nmea:$GPRMC,065624.00,A,2233.473480,N,11353.482560,E,0.0,229.1,060919,,,A*56
09-06 14:56:23.426  1863  3368 E qxsdk   : nmea:$ACCUR,1,12,0,20190906,065624.00,,,,,,,,,,*40
09-06 14:56:23.426  1863  3368 E qxsdk   : nmea:$GPGGA,065624.00,2233.473480,N,11353.482560,E,1,16,0.0,19.657,M,0.000,M,,*60
09-06 14:56:23.426  1863  3368 E qxsdk   : nmea:$GPGLL,,,,,,V,N*64
09-06 14:56:23.426  1863  3368 E qxsdk   : nmea:$GPGSA,A,1,,,,,,,,,,,,,,,*1E
09-06 14:56:23.426  1863  3368 E qxsdk   : nmea:$GPGSV,3,1,12,2,,,35,5,,,38,6,,,30,7,,,*70
09-06 14:56:23.426  1863  3368 E qxsdk   : nmea:$GPGSV,3,2,12,12,,,,13,,,35,15,,,35,19,,,*76
09-06 14:56:23.426  1863  3368 E qxsdk   : nmea:$GPGSV,3,3,12,24,,,,25,,,,29,,,39,30,,,32*78
09-06 14:56:23.426  1863  3368 E qxsdk   : nmea:$BDGSV,4,1,13,201,,,35,202,,,33,203,,,35,204,,,37*6F
09-06 14:56:23.426  1863  3368 E qxsdk   : nmea:$BDGSV,4,2,13,206,,,37,208,,,36,209,,,34,213,,,37*6B
09-06 14:56:23.426  1863  3368 E qxsdk   : nmea:$BDGSV,4,3,13,216,,,38,219,,,40,220,,,40,229,,,41*65
09-06 14:56:23.426  1863  3368 E qxsdk   : nmea:$BDGSV,4,4,13,230,,,39*51
09-06 14:56:23.426  1863  3368 E qxsdk   : nmea:$GPVTG,,T,,M,,N,,K,N*2C
09-06 14:56:23.426  1863  3367 E qxsdk   : cb_status_response status:3002 
09-06 14:56:23.426  1863  3367 E qxsdk   : posflag:8 
09-06 14:56:24.429  1863  3368 E qxsdk   : nmea:$GPRMC,065625.00,A,2233.473446,N,11353.482568,E,0.0,46.6,060919,,,A*69
09-06 14:56:24.429  1863  3368 E qxsdk   : nmea:$ACCUR,1,12,0,20190906,065625.00,,,,,,,,,,*41
09-06 14:56:24.429  1863  3368 E qxsdk   : nmea:$GPGGA,065625.00,2233.473446,N,11353.482568,E,1,16,0.0,19.544,M,0.000,M,,*62
09-06 14:56:24.429  1863  3368 E qxsdk   : nmea:$GPGLL,,,,,,V,N*64
09-06 14:56:24.429  1863  3368 E qxsdk   : nmea:$GPGSA,A,1,,,,,,,,,,,,,,,*1E
09-06 14:56:24.429  1863  3368 E qxsdk   : nmea:$GPGSV,3,1,12,2,,,39,5,,,41,6,,,30,7,,,*72
09-06 14:56:24.429  1863  3368 E qxsdk   : nmea:$GPGSV,3,2,12,12,,,,13,,,39,15,,,39,19,,,*76
09-06 14:56:24.429  1863  3368 E qxsdk   : nmea:$GPGSV,3,3,12,24,,,,25,,,,29,,,41,30,,,35*70
09-06 14:56:24.429  1863  3368 E qxsdk   : nmea:$BDGSV,4,1,13,201,,,36,202,,,34,203,,,36,204,,,37*68
09-06 14:56:24.429  1863  3368 E qxsdk   : nmea:$BDGSV,4,2,13,206,,,38,208,,,37,209,,,35,213,,,38*6B
09-06 14:56:24.429  1863  3368 E qxsdk   : nmea:$BDGSV,4,3,13,216,,,39,219,,,40,220,,,41,229,,,43*67
09-06 14:56:24.429  1863  3368 E qxsdk   : nmea:$BDGSV,4,4,13,230,,,39*51
09-06 14:56:24.430  1863  3368 E qxsdk   : nmea:$GPVTG,,T,,M,,N,,K,N*2C
09-06 14:56:24.430  1863  3367 E qxsdk   : cb_status_response status:3002 
09-06 14:56:24.430  1863  3367 E qxsdk   : posflag:8 
09-06 14:56:25.430  1863  3368 E qxsdk   : nmea:$GPRMC,065626.00,A,2233.473417,N,11353.482575,E,0.0,230.7,060919,,,A*50
09-06 14:56:25.431  1863  3368 E qxsdk   : nmea:$ACCUR,1,12,0,20190906,065626.00,,,,,,,,,,*42
09-06 14:56:25.431  1863  3368 E qxsdk   : nmea:$GPGGA,065626.00,2233.473417,N,11353.482575,E,1,16,0.0,19.492,M,0.000,M,,*63
09-06 14:56:25.431  1863  3368 E qxsdk   : nmea:$GPGLL,,,,,,V,N*64
09-06 14:56:25.431  1863  3368 E qxsdk   : nmea:$GPGSA,A,1,,,,,,,,,,,,,,,*1E
09-06 14:56:25.431  1863  3368 E qxsdk   : nmea:$GPGSV,3,1,12,2,,,41,5,,,41,6,,,33,7,,,*7E
09-06 14:56:25.431  1863  3368 E qxsdk   : nmea:$GPGSV,3,2,12,12,,,,13,,,39,15,,,40,19,,,*78
09-06 14:56:25.431  1863  3368 E qxsdk   : nmea:$GPGSV,3,3,12,24,,,,25,,,,29,,,41,30,,,36*73
09-06 14:56:25.431  1863  3368 E qxsdk   : nmea:$BDGSV,4,1,13,201,,,36,202,,,34,203,,,36,204,,,37*68
09-06 14:56:25.431  1863  3368 E qxsdk   : nmea:$BDGSV,4,2,13,206,,,36,208,,,37,209,,,35,213,,,38*65
09-06 14:56:25.431  1863  3368 E qxsdk   : nmea:$BDGSV,4,3,13,216,,,37,219,,,39,220,,,39,229,,,40*6B
09-06 14:56:25.431  1863  3368 E qxsdk   : nmea:$BDGSV,4,4,13,230,,,37*5F
09-06 14:56:25.431  1863  3368 E qxsdk   : nmea:$GPVTG,,T,,M,,N,,K,N*2C
09-06 14:56:25.431  1863  3367 E qxsdk   : cb_status_response status:3002 
09-06 14:56:25.431  1863  3367 E qxsdk   : posflag:8 
09-06 14:56:26.426  1863  3368 E qxsdk   : nmea:$GPRMC,065627.00,A,2233.473416,N,11353.482569,E,0.0,154.8,060919,,,A*53
09-06 14:56:26.426  1863  3368 E qxsdk   : nmea:$ACCUR,1,12,0,20190906,065627.00,,,,,,,,,,*43
09-06 14:56:26.426  1863  3368 E qxsdk   : nmea:$GPGGA,065627.00,2233.473416,N,11353.482569,E,1,16,0.0,19.652,M,0.000,M,,*60
09-06 14:56:26.426  1863  3368 E qxsdk   : nmea:$GPGLL,,,,,,V,N*64
09-06 14:56:26.426  1863  3368 E qxsdk   : nmea:$GPGSA,A,1,,,,,,,,,,,,,,,*1E
09-06 14:56:26.426  1863  3368 E qxsdk   : nmea:$GPGSV,3,1,12,2,,,42,5,,,42,6,,,33,7,,,*7E
09-06 14:56:26.426  1863  3368 E qxsdk   : nmea:$GPGSV,3,2,12,12,,,,13,,,41,15,,,41,19,,,*76
09-06 14:56:26.426  1863  3368 E qxsdk   : nmea:$GPGSV,3,3,12,24,,,,25,,,,29,,,43,30,,,38*7F
09-06 14:56:26.426  1863  3368 E qxsdk   : nmea:$BDGSV,4,1,13,201,,,36,202,,,34,203,,,35,204,,,37*6B
09-06 14:56:26.427  1863  3368 E qxsdk   : nmea:$BDGSV,4,2,13,206,,,37,208,,,36,209,,,34,213,,,38*64
09-06 14:56:26.427  1863  3368 E qxsdk   : nmea:$BDGSV,4,3,13,216,,,39,219,,,40,220,,,40,229,,,42*67
09-06 14:56:26.427  1863  3368 E qxsdk   : nmea:$BDGSV,4,4,13,230,,,38*50
09-06 14:56:26.427  1863  3368 E qxsdk   : nmea:$GPVTG,,T,,M,,N,,K,N*2C
09-06 14:56:26.427  1863  3367 E qxsdk   : cb_status_response status:3002 
09-06 14:56:26.427  1863  3367 E qxsdk   : posflag:8 
09-06 14:56:27.434  1863  3368 E qxsdk   : nmea:$GPRMC,065628.00,A,2233.473414,N,11353.482574,E,0.0,84.0,060919,,,A*66
09-06 14:56:27.434  1863  3368 E qxsdk   : nmea:$ACCUR,1,12,0,20190906,065628.00,,,,,,,,,,*4C
09-06 14:56:27.434  1863  3368 E qxsdk   : nmea:$GPGGA,065628.00,2233.473414,N,11353.482574,E,1,16,0.0,19.843,M,0.000,M,,*6F
09-06 14:56:27.434  1863  3368 E qxsdk   : nmea:$GPGLL,,,,,,V,N*64
09-06 14:56:27.434  1863  3368 E qxsdk   : nmea:$GPGSA,A,1,,,,,,,,,,,,,,,*1E
09-06 14:56:27.434  1863  3368 E qxsdk   : nmea:$GPGSV,3,1,12,2,,,41,5,,,43,6,,,33,7,,,*7C
09-06 14:56:27.434  1863  3368 E qxsdk   : nmea:$GPGSV,3,2,12,12,,,,13,,,40,15,,,40,19,,,*76
09-06 14:56:27.434  1863  3368 E qxsdk   : nmea:$GPGSV,3,3,12,24,,,,25,,,,29,,,43,30,,,37*70
09-06 14:56:27.434  1863  3368 E qxsdk   : nmea:$BDGSV,4,1,13,201,,,35,202,,,33,203,,,35,204,,,36*6E
09-06 14:56:27.434  1863  3368 E qxsdk   : nmea:$BDGSV,4,2,13,206,,,37,208,,,36,209,,,34,213,,,37*6B
09-06 14:56:27.434  1863  3368 E qxsdk   : nmea:$BDGSV,4,3,13,216,,,39,219,,,39,220,,,39,229,,,41*64
09-06 14:56:27.434  1863  3368 E qxsdk   : nmea:$BDGSV,4,4,13,230,,,38*50
09-06 14:56:27.434  1863  3368 E qxsdk   : nmea:$GPVTG,,T,,M,,N,,K,N*2C
09-06 14:56:27.435  1863  3367 E qxsdk   : cb_status_response status:3002 
09-06 14:56:27.435  1863  3367 E qxsdk   : posflag:8 
09-06 14:56:28.426  1863  3368 E qxsdk   : nmea:$GPRMC,065629.00,A,2233.473400,N,11353.482575,E,0.0,112.2,060919,,,A*5F
09-06 14:56:28.426  1863  3368 E qxsdk   : nmea:$ACCUR,1,12,0,20190906,065629.00,,,,,,,,,,*4D
09-06 14:56:28.426  1863  3368 E qxsdk   : nmea:$GPGGA,065629.00,2233.473400,N,11353.482575,E,1,16,0.0,20.012,M,0.000,M,,*6C
09-06 14:56:28.426  1863  3368 E qxsdk   : nmea:$GPGLL,,,,,,V,N*64
09-06 14:56:28.426  1863  3368 E qxsdk   : nmea:$GPGSA,A,1,,,,,,,,,,,,,,,*1E
09-06 14:56:28.426  1863  3368 E qxsdk   : nmea:$GPGSV,3,1,12,2,,,44,5,,,46,6,,,37,7,,,*78
09-06 14:56:28.426  1863  3368 E qxsdk   : nmea:$GPGSV,3,2,12,12,,,,13,,,43,15,,,44,19,,,*71
09-06 14:56:28.426  1863  3368 E qxsdk   : nmea:$GPGSV,3,3,12,24,,,,25,,,,29,,,46,30,,,40*75
09-06 14:56:28.426  1863  3368 E qxsdk   : nmea:$BDGSV,4,1,13,201,,,32,202,,,31,203,,,31,204,,,33*6A
09-06 14:56:28.426  1863  3368 E qxsdk   : nmea:$BDGSV,4,2,13,206,,,31,208,,,33,209,,,32,213,,,34*6D
09-06 14:56:28.426  1863  3368 E qxsdk   : nmea:$BDGSV,4,3,13,216,,,34,219,,,35,220,,,35,229,,,36*69
09-06 14:56:28.426  1863  3368 E qxsdk   : nmea:$BDGSV,4,4,13,230,,,35*5D
09-06 14:56:28.426  1863  3368 E qxsdk   : nmea:$GPVTG,,T,,M,,N,,K,N*2C
09-06 14:56:28.426  1863  3367 E qxsdk   : cb_status_response status:3002 
09-06 14:56:28.426  1863  3367 E qxsdk   : posflag:8 
09-06 14:56:29.515  1863  3368 E qxsdk   : nmea:$GPRMC,065630.00,A,2233.473387,N,11353.482584,E,0.0,69.0,060919,,,A*6E
09-06 14:56:29.515  1863  3368 E qxsdk   : nmea:$ACCUR,1,12,0,20190906,065630.00,,,,,,,,,,*45
09-06 14:56:29.515  1863  3368 E qxsdk   : nmea:$GPGGA,065630.00,2233.473387,N,11353.482584,E,1,16,0.0,20.044,M,0.000,M,,*61
09-06 14:56:29.515  1863  3368 E qxsdk   : nmea:$GPGLL,,,,,,V,N*64
09-06 14:56:29.515  1863  3368 E qxsdk   : nmea:$GPGSA,A,1,,,,,,,,,,,,,,,*1E
09-06 14:56:29.515  1863  3368 E qxsdk   : nmea:$GPGSV,3,1,12,2,,,43,5,,,44,6,,,35,7,,,*7F
09-06 14:56:29.515  1863  3368 E qxsdk   : nmea:$GPGSV,3,2,12,12,,,,13,,,42,15,,,43,19,,,*77
09-06 14:56:29.515  1863  3368 E qxsdk   : nmea:$GPGSV,3,3,12,24,,,,25,,,,29,,,44,30,,,38*78
09-06 14:56:29.515  1863  3368 E qxsdk   : nmea:$BDGSV,4,1,13,201,,,28,202,,,,203,,,,204,,,28*6B
09-06 14:56:29.515  1863  3368 E qxsdk   : nmea:$BDGSV,4,2,13,206,,,27,208,,,28,209,,,27,213,,,27*66
09-06 14:56:29.515  1863  3368 E qxsdk   : nmea:$BDGSV,4,3,13,216,,,31,219,,,30,220,,,29,229,,,34*66
09-06 14:56:29.515  1863  3368 E qxsdk   : nmea:$BDGSV,4,4,13,230,,,30*58
09-06 14:56:29.515  1863  3368 E qxsdk   : nmea:$GPVTG,,T,,M,,N,,K,N*2C
09-06 14:56:29.515  1863  3367 E qxsdk   : cb_status_response status:3002 
09-06 14:56:29.515  1863  3367 E qxsdk   : posflag:8 
09-06 14:56:30.428  1863  3368 E qxsdk   : nmea:$GPRMC,065631.00,A,2233.473374,N,11353.482539,E,0.0,308.6,060919,,,A*57
09-06 14:56:30.428  1863  3368 E qxsdk   : nmea:$ACCUR,1,12,0,20190906,065631.00,,,,,,,,,,*44
09-06 14:56:30.428  1863  3368 E qxsdk   : nmea:$GPGGA,065631.00,2233.473374,N,11353.482539,E,1,16,0.0,20.518,M,0.000,M,,*66
09-06 14:56:30.428  1863  3368 E qxsdk   : nmea:$GPGLL,,,,,,V,N*64
09-06 14:56:30.428  1863  3368 E qxsdk   : nmea:$GPGSA,A,1,,,,,,,,,,,,,,,*1E
09-06 14:56:30.428  1863  3368 E qxsdk   : nmea:$GPGSV,3,1,12,2,,,42,5,,,43,6,,,34,7,,,*78
09-06 14:56:30.428  1863  3368 E qxsdk   : nmea:$GPGSV,3,2,12,12,,,,13,,,40,15,,,42,19,,,*74
09-06 14:56:30.428  1863  3368 E qxsdk   : nmea:$GPGSV,3,3,12,24,,,,25,,,,29,,,43,30,,,38*7F
09-06 14:56:30.428  1863  3368 E qxsdk   : nmea:$BDGSV,4,1,13,201,,,34,202,,,32,203,,,33,204,,,35*6B
09-06 14:56:30.428  1863  3368 E qxsdk   : nmea:$BDGSV,4,2,13,206,,,36,208,,,35,209,,,29,213,,,36*64
09-06 14:56:30.428  1863  3368 E qxsdk   : nmea:$BDGSV,4,3,13,216,,,38,219,,,38,220,,,39,229,,,39*6B
09-06 14:56:30.428  1863  3368 E qxsdk   : nmea:$BDGSV,4,4,13,230,,,38*50
09-06 14:56:30.428  1863  3368 E qxsdk   : nmea:$GPVTG,,T,,M,,N,,K,N*2C
09-06 14:56:30.428  1863  3367 E qxsdk   : cb_status_response status:3002 
09-06 14:56:30.428  1863  3367 E qxsdk   : posflag:8 
09-06 14:56:31.427  1863  3368 E qxsdk   : nmea:$GPRMC,065632.00,A,2233.473331,N,11353.482482,E,0.0,52.5,060919,,,A*6B
09-06 14:56:31.427  1863  3368 E qxsdk   : nmea:$ACCUR,1,12,0,20190906,065632.00,,,,,,,,,,*47
09-06 14:56:31.427  1863  3368 E qxsdk   : nmea:$GPGGA,065632.00,2233.473331,N,11353.482482,E,1,16,0.0,21.126,M,0.000,M,,*6D
09-06 14:56:31.427  1863  3368 E qxsdk   : nmea:$GPGLL,,,,,,V,N*64
09-06 14:56:31.427  1863  3368 E qxsdk   : nmea:$GPGSA,A,1,,,,,,,,,,,,,,,*1E
09-06 14:56:31.427  1863  3368 E qxsdk   : nmea:$GPGSV,3,1,12,2,,,45,5,,,46,6,,,37,7,,,*79
09-06 14:56:31.427  1863  3368 E qxsdk   : nmea:$GPGSV,3,2,12,12,,,,13,,,44,15,,,45,19,,,*77
09-06 14:56:31.427  1863  3368 E qxsdk   : nmea:$GPGSV,3,3,12,24,,,,25,,,,29,,,46,30,,,41*74
09-06 14:56:31.427  1863  3368 E qxsdk   : nmea:$BDGSV,4,1,13,201,,,38,202,,,37,203,,,39,204,,,39*64
09-06 14:56:31.427  1863  3368 E qxsdk   : nmea:$BDGSV,4,2,13,206,,,40,208,,,39,209,,,35,213,,,40*65
09-06 14:56:31.427  1863  3368 E qxsdk   : nmea:$BDGSV,4,3,13,216,,,41,219,,,42,220,,,43,229,,,44*6F
09-06 14:56:31.427  1863  3368 E qxsdk   : nmea:$BDGSV,4,4,13,230,,,42*5D
09-06 14:56:31.427  1863  3368 E qxsdk   : nmea:$GPVTG,,T,,M,,N,,K,N*2C
09-06 14:56:31.427  1863  3367 E qxsdk   : cb_status_response status:3002 
09-06 14:56:31.427  1863  3367 E qxsdk   : posflag:8 
09-06 14:56:32.120  1863  1872 E qxsdk   : qxsdk_qx_service_switch   on=0, qxsdk_loop_flag=1, qxsdk_exit_flag=0
09-06 14:56:32.120  1863  1872 E qxsdk   : status is 0
09-06 14:56:32.120  1863  1872 E qxsdk   : [Server] Read Failed Or Blocked~~~  line=967  ret=-1 
09-06 14:56:32.476  1863  3505 E qxsdk   : serial read timeout in :1050 (ms) 
09-06 14:56:32.476  1863  3505 E qxsdk   : cb_status_response status:2004 
09-06 14:56:32.478  1863  3505 E qxsdk   : cb_status_response status:2006 
09-06 14:56:32.561  1863  3363 E qxsdk   : cb_status_response status:2004 
09-06 14:58:35.658  1863  1872 E qxsdk   : accept atci service socket '6' successfully!!!
09-06 14:58:35.658  1863  1872 E qxsdk   : [Server] line=982  ret=41 Recv: SOC-OPEN:NOWIMEI:[352736084265852]IMEIEND
09-06 14:58:36.659  1863  1872 E qxsdk   : qxsdk_qx_service_switch   on=1, qxsdk_loop_flag=0, qxsdk_exit_flag=1
09-06 14:58:36.659  1863  1872 E qxsdk   :  qxsdk_server_socket_parse_cmdstring  line=888  IMEI:[352736084265852]
09-06 14:58:36.659  1863 10254 E qxsdk   : status is 1
09-06 14:58:36.659  1863 10254 E qxsdk   : Enter hl_main_opt
09-06 14:58:36.662  1863 10254 E qxsdk   : /sdcard/qxwz is exsit!!!
09-06 14:58:36.662  1863 10254 E qxsdk   : /sdcard/tmp is exsit!!!
09-06 14:58:36.662  1863 10254 E qxsdk   : open file ./testCfg.ini error.
09-06 14:58:36.662  1863 10254 E qxsdk   : current account info: 765408 8ac18ca452e99995f3ac71e74d5e8568ec39ab849ec583c2239a4a02951feb2a 352736084265852 C3705_GDKJ 
09-06 14:58:36.662  1863 10254 E qxsdk   : opening device :/dev/ttyMT2 
09-06 14:58:36.662  1863 10254 E qxsdk   : communicate baut is 9600 
09-06 14:58:36.662  1863 10254 E qxsdk   : Enter set_serial_opt
09-06 14:58:36.663  1863 10254 E qxsdk   : Leave set_serial_opt
09-06 14:58:36.663  1863 10254 E qxsdk   : start reading... 
09-06 14:58:36.663  1863 10254 E qxsdk   : configure the device....
09-06 14:58:39.064  1863 10254 E qxsdk   : configure over
09-06 14:58:39.064  1863 10254 E qxsdk   : re-opening device /dev/ttyMT2
09-06 14:58:39.064  1863 10254 E qxsdk   : communicate baut is 115200 
09-06 14:58:39.064  1863 10254 E qxsdk   : Enter set_serial_opt
09-06 14:58:39.064  1863 10254 E qxsdk   : Leave set_serial_opt
09-06 14:58:39.064  1863 10254 E qxsdk   : cxf init :do_sdk_loop 
09-06 14:58:39.065  1863 10254 E qxsdk   : cb_status_response status:2000 
09-06 14:58:39.065  1863 10254 E qxsdk   : cxf start :do_sdk_loop 
09-06 14:58:39.065  1863 10254 E qxsdk   : len:14 
09-06 14:58:39.066  1863 10254 E qxsdk   : cxf poll :do_sdk_loop 
09-06 14:58:39.066  1863 10254 E qxsdk   : Enter serial_poll
09-06 14:58:39.070  1863  3363 E qxsdk   : cb_status_response status:2002 
09-06 14:58:39.343  1863 10257 E qxsdk   : cb_status_response status:4006 
09-06 14:58:39.350  1863  3368 E qxsdk   : nmea:$GPGLL,,,,,,V,N*64
09-06 14:58:39.350  1863  3368 E qxsdk   : nmea:$GPGSA,A,1,,,,,,,,,,,,,,,*1E
09-06 14:58:39.350  1863  3368 E qxsdk   : nmea:$GPGSV,2,1,6,2,,,44,5,,,46,13,,,44,15,,,44*4F
09-06 14:58:39.350  1863  3368 E qxsdk   : nmea:$GPGSV,2,2,6,29,,,47,30,,,43*43
09-06 14:58:39.350  1863  3368 E qxsdk   : nmea:$BDGSV,1,1,3,201,,,32,204,,,31,205,,,33*6A
09-06 14:58:39.350  1863  3368 E qxsdk   : nmea:$GPVTG,,T,,M,,N,,K,N*2C
09-06 14:58:39.405  1863  3367 E qxsdk   : cb_status_response status:3002 
09-06 14:58:39.405  1863  3367 E qxsdk   : posflag:8 
09-06 14:58:39.405  1863  3368 E qxsdk   : nmea:$GPRMC,065840.00,A,2233.468555,N,11353.489192,E,0.0,155.5,060919,,,A*57
09-06 14:58:39.405  1863  3368 E qxsdk   : nmea:$ACCUR,1,12,0,20190906,065840.00,,,,,,,,,,*4C
09-06 14:58:39.405  1863  3368 E qxsdk   : nmea:$GPGGA,065840.00,2233.468555,N,11353.489192,E,1,07,0.0,38.567,M,0.000,M,,*6E
09-06 14:58:39.409  1863 10256 E qxsdk   : len:48 
09-06 14:58:40.419  1863  3368 E qxsdk   : nmea:$GPRMC,065841.00,A,2233.471613,N,11353.487417,E,0.3,166.3,060919,,,A*5C
09-06 14:58:40.419  1863  3368 E qxsdk   : nmea:$ACCUR,1,12,0,20190906,065841.00,,,,,,,,,,*4D
09-06 14:58:40.419  1863  3368 E qxsdk   : nmea:$GPGGA,065841.00,2233.471613,N,11353.487417,E,1,13,0.0,31.079,M,0.000,M,,*66
09-06 14:58:40.419  1863  3368 E qxsdk   : nmea:$GPGLL,,,,,,V,N*64
09-06 14:58:40.419  1863  3368 E qxsdk   : nmea:$GPGSA,A,1,,,,,,,,,,,,,,,*1E
09-06 14:58:40.419  1863  3368 E qxsdk   : nmea:$GPGSV,2,1,7,2,,,42,5,,,44,6,,,32,13,,,42*7F
09-06 14:58:40.419  1863  3368 E qxsdk   : nmea:$GPGSV,2,2,7,15,,,42,29,,,45,30,,,41*40
09-06 14:58:40.419  1863  3368 E qxsdk   : nmea:$BDGSV,3,1,11,201,,,33,202,,,34,204,,,31,205,,,*6D
09-06 14:58:40.419  1863  3368 E qxsdk   : nmea:$BDGSV,3,2,11,206,,,32,213,,,33,216,,,33,219,,,35*65
09-06 14:58:40.419  1863  3368 E qxsdk   : nmea:$BDGSV,3,3,11,220,,,35,229,,,37,230,,,29*59
09-06 14:58:40.419  1863  3368 E qxsdk   : nmea:$GPVTG,,T,,M,,N,,K,N*2C
09-06 14:58:40.419  1863  3367 E qxsdk   : cb_status_response status:3002 
09-06 14:58:40.419  1863  3367 E qxsdk   : posflag:8 
09-06 14:58:41.361  1863  3368 E qxsdk   : nmea:$GPGLL,,,,,,V,N*64
09-06 14:58:41.361  1863  3368 E qxsdk   : nmea:$GPGSA,A,1,,,,,,,,,,,,,,,*1E
09-06 14:58:41.361  1863  3368 E qxsdk   : nmea:$GPGSV,2,1,7,2,,,30,5,,,33,6,,,24,13,,,31*79
09-06 14:58:41.361  1863  3368 E qxsdk   : nmea:$GPGSV,2,2,7,15,,,29,29,,,32,30,,,30*4B
09-06 14:58:41.361  1863  3368 E qxsdk   : nmea:$BDGSV,3,1,11,201,,,33,202,,,34,204,,,31,205,,,*6D
09-06 14:58:41.361  1863  3368 E qxsdk   : nmea:$BDGSV,3,2,11,206,,,,213,,,30,216,,,,219,,,26*65
09-06 14:58:41.361  1863  3368 E qxsdk   : nmea:$BDGSV,3,3,11,220,,,28,229,,,,230,,,*5A
09-06 14:58:41.361  1863  3368 E qxsdk   : nmea:$GPVTG,,T,,M,,N,,K,N*2C
09-06 14:58:41.432  1863  3367 E qxsdk   : cb_status_response status:3002 
09-06 14:58:41.432  1863  3367 E qxsdk   : posflag:8 
09-06 14:58:41.432  1863  3368 E qxsdk   : nmea:$GPRMC,065842.00,A,2233.470898,N,11353.487630,E,0.6,164.6,060919,,,A*56
09-06 14:58:41.432  1863  3368 E qxsdk   : nmea:$ACCUR,1,12,0,20190906,065842.00,,,,,,,,,,*4E
09-06 14:58:41.432  1863  3368 E qxsdk   : nmea:$GPGGA,065842.00,2233.470898,N,11353.487630,E,1,14,0.0,29.771,M,0.000,M,,*6F
09-06 14:58:42.350  1863  3368 E qxsdk   : nmea:$GPGLL,,,,,,V,N*64
09-06 14:58:42.350  1863  3368 E qxsdk   : nmea:$GPGSA,A,1,,,,,,,,,,,,,,,*1E
09-06 14:58:42.350  1863  3368 E qxsdk   : nmea:$GPGSV,2,1,7,2,,,36,5,,,39,6,,,24,13,,,36*72
09-06 14:58:42.350  1863  3368 E qxsdk   : nmea:$GPGSV,2,2,7,15,,,36,29,,,39,30,,,34*4A
09-06 14:58:42.350  1863  3368 E qxsdk   : nmea:$BDGSV,3,1,12,201,,,,202,,,31,203,,,32,204,,,*6E
09-06 14:58:42.350  1863  3368 E qxsdk   : nmea:$BDGSV,3,2,12,205,,,,206,,,,213,,,,216,,,*6C
09-06 14:58:42.350  1863  3368 E qxsdk   : nmea:$BDGSV,3,3,12,219,,,,220,,,,229,,,,230,,,*69
09-06 14:58:42.350  1863  3368 E qxsdk   : nmea:$GPVTG,,T,,M,,N,,K,N*2C
09-06 14:58:42.404  1863  3367 E qxsdk   : cb_status_response status:3002 
09-06 14:58:42.404  1863  3367 E qxsdk   : posflag:8 
09-06 14:58:42.404  1863  3368 E qxsdk   : nmea:$GPRMC,065843.00,A,2233.470794,N,11353.486769,E,2.3,257.0,060919,,,A*5A
09-06 14:58:42.404  1863  3368 E qxsdk   : nmea:$ACCUR,1,12,0,20190906,065843.00,,,,,,,,,,*4F
09-06 14:58:42.404  1863  3368 E qxsdk   : nmea:$GPGGA,065843.00,2233.470794,N,11353.486769,E,1,08,0.0,27.550,M,0.000,M,,*63
09-06 14:58:43.353  1863  3368 E qxsdk   : nmea:$GPGLL,,,,,,V,N*64
09-06 14:58:43.353  1863  3368 E qxsdk   : nmea:$GPGSA,A,1,,,,,,,,,,,,,,,*1E
09-06 14:58:43.353  1863  3368 E qxsdk   : nmea:$GPGSV,2,1,7,2,,,41,5,,,42,6,,,27,13,,,41*7D
09-06 14:58:43.353  1863  3368 E qxsdk   : nmea:$GPGSV,2,2,7,15,,,41,29,,,44,30,,,38*4C
09-06 14:58:43.353  1863  3368 E qxsdk   : nmea:$BDGSV,3,1,12,201,,,32,202,,,31,203,,,,204,,,*6E
09-06 14:58:43.353  1863  3368 E qxsdk   : nmea:$BDGSV,3,2,12,205,,,32,206,,,,213,,,,216,,,*6D
09-06 14:58:43.353  1863  3368 E qxsdk   : nmea:$BDGSV,3,3,12,219,,,,220,,,,229,,,,230,,,*69
09-06 14:58:43.353  1863  3368 E qxsdk   : nmea:$GPVTG,,T,,M,,N,,K,N*2C
09-06 14:58:43.400  1863  3367 E qxsdk   : cb_status_response status:3002 
09-06 14:58:43.400  1863  3367 E qxsdk   : posflag:8 
09-06 14:58:43.400  1863  3368 E qxsdk   : nmea:$GPRMC,065844.00,A,2233.473205,N,11353.486161,E,0.2,206.1,060919,,,A*5B
09-06 14:58:43.400  1863  3368 E qxsdk   : nmea:$ACCUR,1,12,0,20190906,065844.00,,,,,,,,,,*48
09-06 14:58:43.400  1863  3368 E qxsdk   : nmea:$GPGGA,065844.00,2233.473205,N,11353.486161,E,1,07,0.0,27.134,M,0.000,M,,*6D
09-06 14:58:44.359  1863  3368 E qxsdk   : nmea:$GPGLL,,,,,,V,N*64
09-06 14:58:44.359  1863  3368 E qxsdk   : nmea:$GPGSA,A,1,,,,,,,,,,,,,,,*1E
09-06 14:58:44.359  1863  3368 E qxsdk   : nmea:$GPGSV,2,1,7,2,,,37,5,,,41,6,,,27,13,,,38*71
09-06 14:58:44.359  1863  3368 E qxsdk   : nmea:$GPGSV,2,2,7,15,,,38,29,,,40,30,,,36*48
09-06 14:58:44.359  1863  3368 E qxsdk   : nmea:$BDGSV,3,1,12,201,,,32,202,,,31,203,,,32,204,,,31*6D
09-06 14:58:44.359  1863  3368 E qxsdk   : nmea:$BDGSV,3,2,12,205,,,32,206,,,,213,,,,216,,,*6D
09-06 14:58:44.359  1863  3368 E qxsdk   : nmea:$BDGSV,3,3,12,219,,,,220,,,,229,,,,230,,,*69
09-06 14:58:44.359  1863  3368 E qxsdk   : nmea:$GPVTG,,T,,M,,N,,K,N*2C
09-06 14:58:44.407  1863  3367 E qxsdk   : cb_status_response status:3002 
09-06 14:58:44.407  1863  3367 E qxsdk   : posflag:8 
09-06 14:58:44.407  1863  3368 E qxsdk   : nmea:$GPRMC,065845.00,A,2233.473029,N,11353.486231,E,0.2,222.7,060919,,,A*50
09-06 14:58:44.407  1863  3368 E qxsdk   : nmea:$ACCUR,1,12,0,20190906,065845.00,,,,,,,,,,*49
09-06 14:58:44.407  1863  3368 E qxsdk   : nmea:$GPGGA,065845.00,2233.473029,N,11353.486231,E,1,07,0.0,26.144,M,0.000,M,,*60
09-06 14:58:45.354  1863  3368 E qxsdk   : nmea:$GPGLL,,,,,,V,N*64
09-06 14:58:45.354  1863  3368 E qxsdk   : nmea:$GPGSA,A,1,,,,,,,,,,,,,,,*1E
09-06 14:58:45.354  1863  3368 E qxsdk   : nmea:$GPGSV,2,1,7,2,,,37,5,,,40,6,,,27,13,,,38*70
09-06 14:58:45.354  1863  3368 E qxsdk   : nmea:$GPGSV,2,2,7,15,,,38,29,,,40,30,,,36*48
09-06 14:58:45.354  1863  3368 E qxsdk   : nmea:$BDGSV,3,1,12,201,,,,202,,,,203,,,33,204,,,32*6C
09-06 14:58:45.354  1863  3368 E qxsdk   : nmea:$BDGSV,3,2,12,205,,,32,206,,,,213,,,,216,,,*6D
09-06 14:58:45.354  1863  3368 E qxsdk   : nmea:$BDGSV,3,3,12,219,,,,220,,,,229,,,,230,,,*69
09-06 14:58:45.354  1863  3368 E qxsdk   : nmea:$GPVTG,,T,,M,,N,,K,N*2C
09-06 14:58:45.404  1863  3367 E qxsdk   : cb_status_response status:3002 
09-06 14:58:45.404  1863  3367 E qxsdk   : posflag:8 
09-06 14:58:45.404  1863  3368 E qxsdk   : nmea:$GPRMC,065846.00,A,2233.473179,N,11353.486107,E,0.2,236.3,060919,,,A*50
09-06 14:58:45.404  1863  3368 E qxsdk   : nmea:$ACCUR,1,12,0,20190906,065846.00,,,,,,,,,,*4A
09-06 14:58:45.404  1863  3368 E qxsdk   : nmea:$GPGGA,065846.00,2233.473179,N,11353.486107,E,1,07,0.0,25.684,M,0.000,M,,*69
09-06 14:58:46.350  1863  3368 E qxsdk   : nmea:$GPGLL,,,,,,V,N*64
09-06 14:58:46.350  1863  3368 E qxsdk   : nmea:$GPGSA,A,1,,,,,,,,,,,,,,,*1E
09-06 14:58:46.350  1863  3368 E qxsdk   : nmea:$GPGSV,2,1,7,2,,,37,5,,,40,6,,,26,13,,,37*7E
09-06 14:58:46.350  1863  3368 E qxsdk   : nmea:$GPGSV,2,2,7,15,,,37,29,,,40,30,,,35*44
09-06 14:58:46.350  1863  3368 E qxsdk   : nmea:$BDGSV,3,1,12,201,,,,202,,,33,203,,,33,204,,,*6D
09-06 14:58:46.350  1863  3368 E qxsdk   : nmea:$BDGSV,3,2,12,205,,,,206,,,,213,,,,216,,,*6C
09-06 14:58:46.350  1863  3368 E qxsdk   : nmea:$BDGSV,3,3,12,219,,,,220,,,,229,,,,230,,,*69
09-06 14:58:46.350  1863  3368 E qxsdk   : nmea:$GPVTG,,T,,M,,N,,K,N*2C
09-06 14:58:46.402  1863  3367 E qxsdk   : cb_status_response status:3002 
09-06 14:58:46.402  1863  3367 E qxsdk   : posflag:8 
09-06 14:58:46.402  1863  3368 E qxsdk   : nmea:$GPRMC,065847.00,A,2233.473113,N,11353.485951,E,0.1,253.8,060919,,,A*5E
09-06 14:58:46.402  1863  3368 E qxsdk   : nmea:$ACCUR,1,12,0,20190906,065847.00,,,,,,,,,,*4B
09-06 14:58:46.402  1863  3368 E qxsdk   : nmea:$GPGGA,065847.00,2233.473113,N,11353.485951,E,1,07,0.0,25.433,M,0.000,M,,*62
09-06 14:58:47.353  1863  3368 E qxsdk   : nmea:$GPGLL,,,,,,V,N*64
09-06 14:58:47.353  1863  3368 E qxsdk   : nmea:$GPGSA,A,1,,,,,,,,,,,,,,,*1E
09-06 14:58:47.353  1863  3368 E qxsdk   : nmea:$GPGSV,2,1,7,2,,,37,5,,,40,6,,,27,13,,,37*7F
09-06 14:58:47.353  1863  3368 E qxsdk   : nmea:$GPGSV,2,2,7,15,,,37,29,,,40,30,,,35*44
09-06 14:58:47.353  1863  3368 E qxsdk   : nmea:$BDGSV,3,1,12,201,,,,202,,,34,203,,,33,204,,,32*6B
09-06 14:58:47.353  1863  3368 E qxsdk   : nmea:$BDGSV,3,2,12,205,,,,206,,,,213,,,,216,,,*6C
09-06 14:58:47.353  1863  3368 E qxsdk   : nmea:$BDGSV,3,3,12,219,,,,220,,,,229,,,,230,,,*69
09-06 14:58:47.353  1863  3368 E qxsdk   : nmea:$GPVTG,,T,,M,,N,,K,N*2C
09-06 14:58:47.398  1863  3368 E qxsdk   : nmea:$GPRMC,065848.00,A,2233.473088,N,11353.485789,E,0.1,210.0,060919,,,A*56
09-06 14:58:47.398  1863  3368 E qxsdk   : nmea:$ACCUR,1,12,0,20190906,065848.00,,,,,,,,,,*44
09-06 14:58:47.398  1863  3368 E qxsdk   : nmea:$GPGGA,065848.00,2233.473088,N,11353.485789,E,1,07,0.0,24.890,M,0.000,M,,*61
09-06 14:58:47.398  1863  3367 E qxsdk   : cb_status_response status:3002 
09-06 14:58:47.398  1863  3367 E qxsdk   : posflag:8 
09-06 14:58:48.350  1863  3368 E qxsdk   : nmea:$GPGLL,,,,,,V,N*64
09-06 14:58:48.350  1863  3368 E qxsdk   : nmea:$GPGSA,A,1,,,,,,,,,,,,,,,*1E
09-06 14:58:48.350  1863  3368 E qxsdk   : nmea:$GPGSV,2,1,7,2,,,38,5,,,41,6,,,27,13,,,39*7F
09-06 14:58:48.350  1863  3368 E qxsdk   : nmea:$GPGSV,2,2,7,15,,,39,29,,,41,30,,,36*48
09-06 14:58:48.350  1863  3368 E qxsdk   : nmea:$BDGSV,3,1,12,201,,,,202,,,34,203,,,32,204,,,*6B
09-06 14:58:48.350  1863  3368 E qxsdk   : nmea:$BDGSV,3,2,12,205,,,,206,,,,213,,,,216,,,*6C
09-06 14:58:48.350  1863  3368 E qxsdk   : nmea:$BDGSV,3,3,12,219,,,,220,,,,229,,,,230,,,*69
09-06 14:58:48.350  1863  3368 E qxsdk   : nmea:$GPVTG,,T,,M,,N,,K,N*2C
09-06 14:58:48.400  1863  3368 E qxsdk   : nmea:$GPRMC,065849.00,A,2233.473411,N,11353.485789,E,0.0,293.3,060919,,,A*5A
09-06 14:58:48.400  1863  3368 E qxsdk   : nmea:$ACCUR,1,12,0,20190906,065849.00,,,,,,,,,,*45
09-06 14:58:48.400  1863  3368 E qxsdk   : nmea:$GPGGA,065849.00,2233.473411,N,11353.485789,E,1,08,0.0,24.653,M,0.000,M,,*6A
09-06 14:58:48.400  1863  3367 E qxsdk   : cb_status_response status:3002 
09-06 14:58:48.400  1863  3367 E qxsdk   : posflag:8 
09-06 14:58:49.345  1863  3368 E qxsdk   : nmea:$GPGLL,,,,,,V,N*64
09-06 14:58:49.345  1863  3368 E qxsdk   : nmea:$GPGSA,A,1,,,,,,,,,,,,,,,*1E
09-06 14:58:49.345  1863  3368 E qxsdk   : nmea:$GPGSV,2,1,7,2,,,38,5,,,41,6,,,28,13,,,38*71
09-06 14:58:49.345  1863  3368 E qxsdk   : nmea:$GPGSV,2,2,7,15,,,38,29,,,41,30,,,36*49
09-06 14:58:49.345  1863  3368 E qxsdk   : nmea:$BDGSV,3,1,12,201,,,,202,,,,203,,,,204,,,*6D
09-06 14:58:49.345  1863  3368 E qxsdk   : nmea:$BDGSV,3,2,12,205,,,,206,,,,213,,,,216,,,*6C
09-06 14:58:49.345  1863  3368 E qxsdk   : nmea:$BDGSV,3,3,12,219,,,,220,,,,229,,,,230,,,*69
09-06 14:58:49.345  1863  3368 E qxsdk   : nmea:$GPVTG,,T,,M,,N,,K,N*2C
09-06 14:58:49.395  1863  3368 E qxsdk   : nmea:$GPRMC,065850.00,A,2233.473583,N,11353.485739,E,0.0,275.0,060919,,,A*58
09-06 14:58:49.395  1863  3368 E qxsdk   : nmea:$ACCUR,1,12,0,20190906,065850.00,,,,,,,,,,*4D
09-06 14:58:49.395  1863  3368 E qxsdk   : nmea:$GPGGA,065850.00,2233.473583,N,11353.485739,E,1,07,0.0,24.648,M,0.000,M,,*66
09-06 14:58:49.395  1863  3367 E qxsdk   : cb_status_response status:3002 
09-06 14:58:49.395  1863  3367 E qxsdk   : posflag:8 
09-06 14:58:50.344  1863  3368 E qxsdk   : nmea:$GPGLL,,,,,,V,N*64
09-06 14:58:50.344  1863  3368 E qxsdk   : nmea:$GPGSA,A,1,,,,,,,,,,,,,,,*1E
09-06 14:58:50.344  1863  3368 E qxsdk   : nmea:$GPGSV,2,1,7,2,,,38,5,,,41,6,,,28,13,,,38*71
09-06 14:58:50.344  1863  3368 E qxsdk   : nmea:$GPGSV,2,2,7,15,,,38,29,,,41,30,,,37*48
09-06 14:58:50.344  1863  3368 E qxsdk   : nmea:$BDGSV,3,1,12,201,,,,202,,,,203,,,,204,,,*6D
09-06 14:58:50.344  1863  3368 E qxsdk   : nmea:$BDGSV,3,2,12,205,,,,206,,,,213,,,,216,,,*6C
09-06 14:58:50.344  1863  3368 E qxsdk   : nmea:$BDGSV,3,3,12,219,,,,220,,,,229,,,,230,,,*69
09-06 14:58:50.344  1863  3368 E qxsdk   : nmea:$GPVTG,,T,,M,,N,,K,N*2C
09-06 14:58:50.394  1863  3367 E qxsdk   : cb_status_response status:3002 
09-06 14:58:50.394  1863  3367 E qxsdk   : posflag:8 
09-06 14:58:50.395  1863  3368 E qxsdk   : nmea:$GPRMC,065851.00,A,2233.473735,N,11353.485690,E,0.0,154.8,060919,,,A*5C
09-06 14:58:50.395  1863  3368 E qxsdk   : nmea:$ACCUR,1,12,0,20190906,065851.00,,,,,,,,,,*4C
09-06 14:58:50.395  1863  3368 E qxsdk   : nmea:$GPGGA,065851.00,2233.473735,N,11353.485690,E,1,07,0.0,24.595,M,0.000,M,,*69
09-06 14:58:51.344  1863  3368 E qxsdk   : nmea:$GPGLL,,,,,,V,N*64
09-06 14:58:51.344  1863  3368 E qxsdk   : nmea:$GPGSA,A,1,,,,,,,,,,,,,,,*1E
09-06 14:58:51.344  1863  3368 E qxsdk   : nmea:$GPGSV,2,1,7,2,,,39,5,,,41,6,,,28,13,,,39*71
09-06 14:58:51.344  1863  3368 E qxsdk   : nmea:$GPGSV,2,2,7,15,,,39,29,,,42,30,,,38*45
09-06 14:58:51.344  1863  3368 E qxsdk   : nmea:$BDGSV,3,1,12,201,,,,202,,,,203,,,,204,,,*6D
09-06 14:58:51.344  1863  3368 E qxsdk   : nmea:$BDGSV,3,2,12,205,,,,206,,,,213,,,,216,,,*6C
09-06 14:58:51.344  1863  3368 E qxsdk   : nmea:$BDGSV,3,3,12,219,,,,220,,,,229,,,,230,,,*69
09-06 14:58:51.344  1863  3368 E qxsdk   : nmea:$GPVTG,,T,,M,,N,,K,N*2C
09-06 14:58:51.393  1863  3367 E qxsdk   : cb_status_response status:3002 
09-06 14:58:51.393  1863  3367 E qxsdk   : posflag:8 
09-06 14:58:51.393  1863  3368 E qxsdk   : nmea:$GPRMC,065852.00,A,2233.474000,N,11353.485643,E,0.0,353.1,060919,,,A*5B
09-06 14:58:51.393  1863  3368 E qxsdk   : nmea:$ACCUR,1,12,0,20190906,065852.00,,,,,,,,,,*4F
09-06 14:58:51.393  1863  3368 E qxsdk   : nmea:$GPGGA,065852.00,2233.474000,N,11353.485643,E,1,07,0.0,24.593,M,0.000,M,,*64
09-06 14:58:52.344  1863  3368 E qxsdk   : nmea:$GPGLL,,,,,,V,N*64
09-06 14:58:52.344  1863  3368 E qxsdk   : nmea:$GPGSA,A,1,,,,,,,,,,,,,,,*1E
09-06 14:58:52.344  1863  3368 E qxsdk   : nmea:$GPGSV,2,1,7,2,,,39,5,,,40,6,,,28,13,,,39*70
09-06 14:58:52.344  1863  3368 E qxsdk   : nmea:$GPGSV,2,2,7,15,,,38,29,,,41,30,,,37*48
09-06 14:58:52.344  1863  3368 E qxsdk   : nmea:$BDGSV,3,1,12,201,,,,202,,,,203,,,,204,,,*6D
09-06 14:58:52.344  1863  3368 E qxsdk   : nmea:$BDGSV,3,2,12,205,,,,206,,,,213,,,,216,,,*6C
09-06 14:58:52.344  1863  3368 E qxsdk   : nmea:$BDGSV,3,3,12,219,,,,220,,,,229,,,,230,,,*69
09-06 14:58:52.344  1863  3368 E qxsdk   : nmea:$GPVTG,,T,,M,,N,,K,N*2C
09-06 14:58:52.391  1863  3368 E qxsdk   : nmea:$GPRMC,065853.00,A,2233.474168,N,11353.485556,E,0.0,231.7,060919,,,A*51
09-06 14:58:52.391  1863  3368 E qxsdk   : nmea:$ACCUR,1,12,0,20190906,065853.00,,,,,,,,,,*4E
09-06 14:58:52.392  1863  3368 E qxsdk   : nmea:$GPGGA,065853.00,2233.474168,N,11353.485556,E,1,07,0.0,24.472,M,0.000,M,,*63
09-06 14:58:52.392  1863  3367 E qxsdk   : cb_status_response status:3002 
09-06 14:58:52.392  1863  3367 E qxsdk   : posflag:8 
09-06 14:58:53.344  1863  3368 E qxsdk   : nmea:$GPGLL,,,,,,V,N*64
09-06 14:58:53.344  1863  3368 E qxsdk   : nmea:$GPGSA,A,1,,,,,,,,,,,,,,,*1E
09-06 14:58:53.344  1863  3368 E qxsdk   : nmea:$GPGSV,2,1,7,2,,,39,5,,,40,6,,,28,13,,,40*7E
09-06 14:58:53.344  1863  3368 E qxsdk   : nmea:$GPGSV,2,2,7,15,,,38,29,,,42,30,,,38*44
09-06 14:58:53.344  1863  3368 E qxsdk   : nmea:$BDGSV,3,1,12,201,,,,202,,,,203,,,,204,,,*6D
09-06 14:58:53.344  1863  3368 E qxsdk   : nmea:$BDGSV,3,2,12,205,,,,206,,,,213,,,,216,,,*6C
09-06 14:58:53.344  1863  3368 E qxsdk   : nmea:$BDGSV,3,3,12,219,,,,220,,,,229,,,,230,,,*69
09-06 14:58:53.344  1863  3368 E qxsdk   : nmea:$GPVTG,,T,,M,,N,,K,N*2C
09-06 14:58:53.392  1863  3367 E qxsdk   : cb_status_response status:3002 
09-06 14:58:53.392  1863  3367 E qxsdk   : posflag:8 
09-06 14:58:53.392  1863  3368 E qxsdk   : nmea:$GPRMC,065854.00,A,2233.474339,N,11353.485480,E,0.1,328.0,060919,,,A*55
09-06 14:58:53.392  1863  3368 E qxsdk   : nmea:$ACCUR,1,12,0,20190906,065854.00,,,,,,,,,,*49
09-06 14:58:53.392  1863  3368 E qxsdk   : nmea:$GPGGA,065854.00,2233.474339,N,11353.485480,E,1,07,0.0,24.388,M,0.000,M,,*6A
09-06 14:58:54.344  1863  3368 E qxsdk   : nmea:$GPGLL,,,,,,V,N*64
09-06 14:58:54.344  1863  3368 E qxsdk   : nmea:$GPGSA,A,1,,,,,,,,,,,,,,,*1E
09-06 14:58:54.344  1863  3368 E qxsdk   : nmea:$GPGSV,2,1,7,2,,,39,5,,,41,6,,,29,13,,,40*7E
09-06 14:58:54.344  1863  3368 E qxsdk   : nmea:$GPGSV,2,2,7,15,,,39,29,,,42,30,,,38*45
09-06 14:58:54.344  1863  3368 E qxsdk   : nmea:$BDGSV,3,1,12,201,,,,202,,,,203,,,,204,,,*6D
09-06 14:58:54.344  1863  3368 E qxsdk   : nmea:$BDGSV,3,2,12,205,,,,206,,,,213,,,,216,,,*6C
09-06 14:58:54.344  1863  3368 E qxsdk   : nmea:$BDGSV,3,3,12,219,,,,220,,,,229,,,,230,,,*69
09-06 14:58:54.344  1863  3368 E qxsdk   : nmea:$GPVTG,,T,,M,,N,,K,N*2C
09-06 14:58:54.392  1863  3367 E qxsdk   : cb_status_response status:3002 
09-06 14:58:54.392  1863  3367 E qxsdk   : posflag:8 
09-06 14:58:54.392  1863  3368 E qxsdk   : nmea:$GPRMC,065855.00,A,2233.474515,N,11353.485454,E,0.0,183.1,060919,,,A*56
09-06 14:58:54.392  1863  3368 E qxsdk   : nmea:$ACCUR,1,12,0,20190906,065855.00,,,,,,,,,,*48
09-06 14:58:54.392  1863  3368 E qxsdk   : nmea:$GPGGA,065855.00,2233.474515,N,11353.485454,E,1,07,0.0,24.311,M,0.000,M,,*6A
09-06 14:58:55.344  1863  3368 E qxsdk   : nmea:$GPGLL,,,,,,V,N*64
09-06 14:58:55.344  1863  3368 E qxsdk   : nmea:$GPGSA,A,1,,,,,,,,,,,,,,,*1E
09-06 14:58:55.344  1863  3368 E qxsdk   : nmea:$GPGSV,2,1,7,2,,,39,5,,,41,6,,,28,13,,,39*71
09-06 14:58:55.344  1863  3368 E qxsdk   : nmea:$GPGSV,2,2,7,15,,,38,29,,,42,30,,,38*44
09-06 14:58:55.344  1863  3368 E qxsdk   : nmea:$BDGSV,3,1,12,201,,,,202,,,,203,,,,204,,,*6D
09-06 14:58:55.344  1863  3368 E qxsdk   : nmea:$BDGSV,3,2,12,205,,,,206,,,,213,,,,216,,,*6C
09-06 14:58:55.344  1863  3368 E qxsdk   : nmea:$BDGSV,3,3,12,219,,,,220,,,,229,,,,230,,,*69
09-06 14:58:55.344  1863  3368 E qxsdk   : nmea:$GPVTG,,T,,M,,N,,K,N*2C
09-06 14:58:55.393  1863  3368 E qxsdk   : nmea:$GPRMC,065856.00,A,2233.474580,N,11353.485427,E,0.0,164.9,060919,,,A*5C
09-06 14:58:55.393  1863  3368 E qxsdk   : nmea:$ACCUR,1,12,0,20190906,065856.00,,,,,,,,,,*4B
09-06 14:58:55.393  1863  3368 E qxsdk   : nmea:$GPGGA,065856.00,2233.474580,N,11353.485427,E,1,07,0.0,24.126,M,0.000,M,,*67
09-06 14:58:55.393  1863  3367 E qxsdk   : cb_status_response status:3002 
09-06 14:58:55.393  1863  3367 E qxsdk   : posflag:8 
09-06 14:58:56.344  1863  3368 E qxsdk   : nmea:$GPGLL,,,,,,V,N*64
09-06 14:58:56.344  1863  3368 E qxsdk   : nmea:$GPGSA,A,1,,,,,,,,,,,,,,,*1E
09-06 14:58:56.344  1863  3368 E qxsdk   : nmea:$GPGSV,2,1,7,2,,,43,5,,,45,6,,,32,13,,,44*79
09-06 14:58:56.344  1863  3368 E qxsdk   : nmea:$GPGSV,2,2,7,15,,,43,29,,,46,30,,,42*41
09-06 14:58:56.344  1863  3368 E qxsdk   : nmea:$BDGSV,3,1,12,201,,,,202,,,,203,,,,204,,,*6D
09-06 14:58:56.344  1863  3368 E qxsdk   : nmea:$BDGSV,3,2,12,205,,,,206,,,,213,,,,216,,,*6C
09-06 14:58:56.344  1863  3368 E qxsdk   : nmea:$BDGSV,3,3,12,219,,,,220,,,,229,,,,230,,,*69
09-06 14:58:56.344  1863  3368 E qxsdk   : nmea:$GPVTG,,T,,M,,N,,K,N*2C
09-06 14:58:56.393  1863  3367 E qxsdk   : cb_status_response status:3002 
09-06 14:58:56.393  1863  3367 E qxsdk   : posflag:8 
09-06 14:58:56.393  1863  3368 E qxsdk   : nmea:$GPRMC,065857.00,A,2233.474695,N,11353.485420,E,0.0,314.8,060919,,,A*59
09-06 14:58:56.393  1863  3368 E qxsdk   : nmea:$ACCUR,1,12,0,20190906,065857.00,,,,,,,,,,*4A
09-06 14:58:56.393  1863  3368 E qxsdk   : nmea:$GPGGA,065857.00,2233.474695,N,11353.485420,E,1,07,0.0,24.031,M,0.000,M,,*61
09-06 14:58:57.344  1863  3368 E qxsdk   : nmea:$GPGLL,,,,,,V,N*64
09-06 14:58:57.344  1863  3368 E qxsdk   : nmea:$GPGSA,A,1,,,,,,,,,,,,,,,*1E
09-06 14:58:57.344  1863  3368 E qxsdk   : nmea:$GPGSV,2,1,7,2,,,42,5,,,45,6,,,30,13,,,43*7D
09-06 14:58:57.344  1863  3368 E qxsdk   : nmea:$GPGSV,2,2,7,15,,,42,29,,,46,30,,,41*43
09-06 14:58:57.344  1863  3368 E qxsdk   : nmea:$BDGSV,3,1,12,201,,,,202,,,,203,,,,204,,,*6D
09-06 14:58:57.344  1863  3368 E qxsdk   : nmea:$BDGSV,3,2,12,205,,,,206,,,,213,,,,216,,,*6C
09-06 14:58:57.344  1863  3368 E qxsdk   : nmea:$BDGSV,3,3,12,219,,,,220,,,,229,,,,230,,,*69
09-06 14:58:57.344  1863  3368 E qxsdk   : nmea:$GPVTG,,T,,M,,N,,K,N*2C
09-06 14:58:57.394  1863  3368 E qxsdk   : nmea:$GPRMC,065858.00,A,2233.474785,N,11353.485419,E,0.0,275.0,060919,,,A*52
09-06 14:58:57.394  1863  3368 E qxsdk   : nmea:$ACCUR,1,12,0,20190906,065858.00,,,,,,,,,,*45
09-06 14:58:57.394  1863  3368 E qxsdk   : nmea:$GPGGA,065858.00,2233.474785,N,11353.485419,E,1,07,0.0,23.945,M,0.000,M,,*69
09-06 14:58:57.394  1863  3367 E qxsdk   : cb_status_response status:3002 
09-06 14:58:57.394  1863  3367 E qxsdk   : posflag:8 
09-06 14:58:58.344  1863  3368 E qxsdk   : nmea:$GPGLL,,,,,,V,N*64
09-06 14:58:58.344  1863  3368 E qxsdk   : nmea:$GPGSA,A,1,,,,,,,,,,,,,,,*1E
09-06 14:58:58.344  1863  3368 E qxsdk   : nmea:$GPGSV,2,1,7,2,,,42,5,,,45,6,,,30,13,,,43*7D
09-06 14:58:58.344  1863  3368 E qxsdk   : nmea:$GPGSV,2,2,7,15,,,41,29,,,46,30,,,41*40
09-06 14:58:58.344  1863  3368 E qxsdk   : nmea:$BDGSV,3,1,12,201,,,,202,,,,203,,,,204,,,*6D
09-06 14:58:58.344  1863  3368 E qxsdk   : nmea:$BDGSV,3,2,12,205,,,,206,,,,213,,,,216,,,*6C
09-06 14:58:58.344  1863  3368 E qxsdk   : nmea:$BDGSV,3,3,12,219,,,,220,,,,229,,,,230,,,*69
09-06 14:58:58.344  1863  3368 E qxsdk   : nmea:$GPVTG,,T,,M,,N,,K,N*2C
09-06 14:58:58.396  1863  3367 E qxsdk   : cb_status_response status:3002 
09-06 14:58:58.396  1863  3367 E qxsdk   : posflag:8 
09-06 14:58:58.396  1863  3368 E qxsdk   : nmea:$GPRMC,065859.00,A,2233.474862,N,11353.485407,E,0.0,356.6,060919,,,A*5C
09-06 14:58:58.396  1863  3368 E qxsdk   : nmea:$ACCUR,1,12,0,20190906,065859.00,,,,,,,,,,*44
09-06 14:58:58.396  1863  3368 E qxsdk   : nmea:$GPGGA,065859.00,2233.474862,N,11353.485407,E,1,07,0.0,23.864,M,0.000,M,,*63
09-06 14:58:59.344  1863  3368 E qxsdk   : nmea:$GPGLL,,,,,,V,N*64
09-06 14:58:59.344  1863  3368 E qxsdk   : nmea:$GPGSA,A,1,,,,,,,,,,,,,,,*1E
09-06 14:58:59.344  1863  3368 E qxsdk   : nmea:$GPGSV,2,1,7,2,,,42,5,,,45,6,,,30,13,,,42*7C
09-06 14:58:59.344  1863  3368 E qxsdk   : nmea:$GPGSV,2,2,7,15,,,41,29,,,46,30,,,41*40
09-06 14:58:59.344  1863  3368 E qxsdk   : nmea:$BDGSV,3,1,12,201,,,,202,,,,203,,,,204,,,*6D
09-06 14:58:59.344  1863  3368 E qxsdk   : nmea:$BDGSV,3,2,12,205,,,,206,,,,213,,,,216,,,*6C
09-06 14:58:59.344  1863  3368 E qxsdk   : nmea:$BDGSV,3,3,12,219,,,,220,,,,229,,,,230,,,*69
09-06 14:58:59.344  1863  3368 E qxsdk   : nmea:$GPVTG,,T,,M,,N,,K,N*2C
09-06 14:58:59.397  1863  3367 E qxsdk   : cb_status_response status:3002 
09-06 14:58:59.397  1863  3367 E qxsdk   : posflag:8 
09-06 14:58:59.397  1863  3368 E qxsdk   : nmea:$GPRMC,065900.00,A,2233.474899,N,11353.485409,E,0.0,0.0,060919,,,A*5D
09-06 14:58:59.397  1863  3368 E qxsdk   : nmea:$ACCUR,1,12,0,20190906,065900.00,,,,,,,,,,*49
09-06 14:58:59.397  1863  3368 E qxsdk   : nmea:$GPGGA,065900.00,2233.474899,N,11353.485409,E,1,07,0.0,23.751,M,0.000,M,,*6D
09-06 14:58:59.637  1863 10256 E qxsdk   : len:8 
09-06 14:59:00.344  1863  3368 E qxsdk   : nmea:$GPGLL,,,,,,V,N*64
09-06 14:59:00.344  1863  3368 E qxsdk   : nmea:$GPGSA,A,1,,,,,,,,,,,,,,,*1E
09-06 14:59:00.344  1863  3368 E qxsdk   : nmea:$GPGSV,2,1,7,2,,,40,5,,,42,6,,,29,13,,,40*73
09-06 14:59:00.344  1863  3368 E qxsdk   : nmea:$GPGSV,2,2,7,15,,,41,29,,,44,30,,,39*4D
09-06 14:59:00.344  1863  3368 E qxsdk   : nmea:$BDGSV,3,1,12,201,,,,202,,,,203,,,,204,,,*6D
09-06 14:59:00.344  1863  3368 E qxsdk   : nmea:$BDGSV,3,2,12,205,,,,206,,,,213,,,,216,,,*6C
09-06 14:59:00.344  1863  3368 E qxsdk   : nmea:$BDGSV,3,3,12,219,,,,220,,,,229,,,,230,,,*69
09-06 14:59:00.344  1863  3368 E qxsdk   : nmea:$GPVTG,,T,,M,,N,,K,N*2C
09-06 14:59:00.392  1863  3367 E qxsdk   : cb_status_response status:3002 
09-06 14:59:00.392  1863  3367 E qxsdk   : posflag:8 
09-06 14:59:00.393  1863  3368 E qxsdk   : nmea:$GPRMC,065901.00,A,2233.474535,N,11353.485236,E,0.0,211.6,060919,,,A*59
09-06 14:59:00.393  1863  3368 E qxsdk   : nmea:$ACCUR,1,12,0,20190906,065901.00,,,,,,,,,,*48
09-06 14:59:00.393  1863  3368 E qxsdk   : nmea:$GPGGA,065901.00,2233.474535,N,11353.485236,E,1,07,0.0,23.259,M,0.000,M,,*60
09-06 14:59:01.341  1863  3368 E qxsdk   : nmea:$GPGLL,,,,,,V,N*64
09-06 14:59:01.341  1863  3368 E qxsdk   : nmea:$GPGSA,A,1,,,,,,,,,,,,,,,*1E
09-06 14:59:01.341  1863  3368 E qxsdk   : nmea:$GPGSV,2,1,7,2,,,44,5,,,46,6,,,,13,,,45*7D
09-06 14:59:01.341  1863  3368 E qxsdk   : nmea:$GPGSV,2,2,7,15,,,44,29,,,47,30,,,44*41
09-06 14:59:01.341  1863  3368 E qxsdk   : nmea:$BDGSV,3,1,12,201,,,,202,,,,203,,,,204,,,*6D
09-06 14:59:01.341  1863  3368 E qxsdk   : nmea:$BDGSV,3,2,12,205,,,,206,,,,213,,,,216,,,*6C
09-06 14:59:01.341  1863  3368 E qxsdk   : nmea:$BDGSV,3,3,12,219,,,,220,,,,229,,,,230,,,*69
09-06 14:59:01.341  1863  3368 E qxsdk   : nmea:$GPVTG,,T,,M,,N,,K,N*2C
09-06 14:59:01.395  1863  3367 E qxsdk   : cb_status_response status:3002 
09-06 14:59:01.395  1863  3367 E qxsdk   : posflag:8 
09-06 14:59:01.395  1863  3368 E qxsdk   : nmea:$GPRMC,065902.00,A,2233.474389,N,11353.485060,E,0.6,258.0,060919,,,A*57
09-06 14:59:01.395  1863  3368 E qxsdk   : nmea:$ACCUR,1,12,0,20190906,065902.00,,,,,,,,,,*4B
09-06 14:59:01.395  1863  3368 E qxsdk   : nmea:$GPGGA,065902.00,2233.474389,N,11353.485060,E,1,06,0.0,22.683,M,0.000,M,,*60
09-06 14:59:02.344  1863  3368 E qxsdk   : nmea:$GPGLL,,,,,,V,N*64
09-06 14:59:02.344  1863  3368 E qxsdk   : nmea:$GPGSA,A,1,,,,,,,,,,,,,,,*1E
09-06 14:59:02.344  1863  3368 E qxsdk   : nmea:$GPGSV,2,1,7,2,,,43,5,,,45,6,,,31,13,,,45*7B
09-06 14:59:02.344  1863  3368 E qxsdk   : nmea:$GPGSV,2,2,7,15,,,45,29,,,47,30,,,43*47
09-06 14:59:02.344  1863  3368 E qxsdk   : nmea:$BDGSV,3,1,12,201,,,,202,,,,203,,,,204,,,*6D
09-06 14:59:02.344  1863  3368 E qxsdk   : nmea:$BDGSV,3,2,12,205,,,,206,,,,213,,,,216,,,*6C
09-06 14:59:02.344  1863  3368 E qxsdk   : nmea:$BDGSV,3,3,12,219,,,,220,,,,229,,,,230,,,*69
09-06 14:59:02.344  1863  3368 E qxsdk   : nmea:$GPVTG,,T,,M,,N,,K,N*2C
09-06 14:59:02.394  1863  3367 E qxsdk   : cb_status_response status:3002 
09-06 14:59:02.394  1863  3367 E qxsdk   : posflag:8 
09-06 14:59:02.394  1863  3368 E qxsdk   : nmea:$GPRMC,065903.00,A,2233.474171,N,11353.484968,E,0.2,188.5,060919,,,A*5C
09-06 14:59:02.394  1863  3368 E qxsdk   : nmea:$ACCUR,1,12,0,20190906,065903.00,,,,,,,,,,*4A
09-06 14:59:02.394  1863  3368 E qxsdk   : nmea:$GPGGA,065903.00,2233.474171,N,11353.484968,E,1,07,0.0,22.475,M,0.000,M,,*6E
09-06 14:59:03.344  1863  3368 E qxsdk   : nmea:$GPGLL,,,,,,V,N*64
09-06 14:59:03.344  1863  3368 E qxsdk   : nmea:$GPGSA,A,1,,,,,,,,,,,,,,,*1E
09-06 14:59:03.344  1863  3368 E qxsdk   : nmea:$GPGSV,2,1,7,2,,,31,5,,,30,6,,,24,13,,,32*78
09-06 14:59:03.344  1863  3368 E qxsdk   : nmea:$GPGSV,2,2,7,15,,,30,29,,,31,30,,,28*49
09-06 14:59:03.344  1863  3368 E qxsdk   : nmea:$BDGSV,3,1,12,201,,,,202,,,,203,,,,204,,,*6D
09-06 14:59:03.344  1863  3368 E qxsdk   : nmea:$BDGSV,3,2,12,205,,,,206,,,,213,,,,216,,,*6C
